{
  "hotels": [
    {
      "city": "اجدابيا",
      "hotels": [
        {
          "id": 1,
          "name": "فندق أفريقيا",
          "rating": "2 نجمتان",
          "address": "ش / الإمام سحنون",
          "coordinates": {
            "x": 20.22165,
            "y": 30.7587
          },
          "rooms": 28,
          "beds": 54,
          "phone": "92747270",
          "notes": "لا يوجد"
        },
        {
          "id": 2,
          "name": "فندق اجدابيا السياحي",
          "rating": "",
          "address": "اجدابيا",
          "coordinates": {
            "x": 20.223,
            "y": 30.75706
          },
          "rooms": 21,
          "beds": 40,
          "phone": "5626402",
          "notes": "لا يوجد"
        },
        {
          "id": 3,
          "name": "فندق امال ليبيا",
          "rating": "4 نجوم",
          "address": "الطريق الدائري",
          "coordinates": {
            "x": 20.23078,
            "y": 30.78037
          },
          "rooms": 54,
          "beds": 86,
          "phone": "645628951",
          "notes": ""
        },
        {
          "id": 4,
          "name": "فندق المدينة السياحي",
          "rating": "",
          "address": "اجدابيا",
          "coordinates": {
            "x": 20.22397,
            "y": 30.75766
          },
          "rooms": 24,
          "beds": 48,
          "phone": "",
          "notes": ""
        },
        {
          "id": 5,
          "name": "الجوهرة للشقق الفندقية",
          "rating": "",
          "address": "شارع الإمام سحنون",
          "coordinates": {
            "x": 20.22385,
            "y": 30.7575
          },
          "rooms": null,
          "beds": null,
          "phone": "",
          "notes": "لا يوجد"
        }
      ]
    },
    {
      "city": "طبرق",
      "hotels": [
        {
          "id": 1,
          "name": "فندق المسيرة",
          "rating": "3 نجوم",
          "address": "طبرق",
          "coordinates": {
            "x": 23.9681,
            "y": 32.07307
          },
          "rooms": 165,
          "beds": 330,
          "phone": "087625760 -68",
          "notes": ""
        },
        {
          "id": 2,
          "name": "نزل قرطاج",
          "rating": "3 نجوم",
          "address": "الطريق الدائري",
          "coordinates": {
            "x": null,
            "y": null
          },
          "rooms": 27,
          "beds": 63,
          "phone": "877620441",
          "notes": "لايوجد"
        },
        {
          "id": 3,
          "name": "فندق الجلاء",
          "rating": "مقفل",
          "address": "طبرق/ش الفضيل",
          "coordinates": {
            "x": 23.97332,
            "y": 32.08067
          },
          "rooms": 30,
          "beds": 40,
          "phone": "622310",
          "notes": "لايوجد"
        },
        {
          "id": 4,
          "name": "فندق الأموي",
          "rating": "مقفل",
          "address": "طبرق/ش أول سبتمبر",
          "coordinates": {
            "x": 23.97579,
            "y": 32.08092
          },
          "rooms": 35,
          "beds": 75,
          "phone": "623818",
          "notes": "لا يوجد"
        },
        {
          "id": 5,
          "name": "فندق زين( 1) للشقق الفندقية",
          "rating": "",
          "address": "طبرق",
          "coordinates": {
            "x": 23.94169,
            "y": 32.06836
          },
          "rooms": 10,
          "beds": 40,
          "phone": "925483316",
          "notes": "لا يوجد"
        },
        {
          "id": 6,
          "name": "فندق الجبل الأخضر",
          "rating": "مقفل",
          "address": "طبرق",
          "coordinates": {
            "x": null,
            "y": null
          },
          "rooms": 32,
          "beds": 47,
          "phone": "926392377",
          "notes": "لا يوجد"
        },
        {
          "id": 7,
          "name": "فندق زهرة الخليج للشقق الفندقية",
          "rating": "",
          "address": "طبرق",
          "coordinates": {
            "x": 23.97749,
            "y": 32.0819
          },
          "rooms": 13,
          "beds": 48,
          "phone": "925798372",
          "notes": "لا يوجد"
        },
        {
          "id": 8,
          "name": "فندق الجمل",
          "rating": "نجمة واحدة",
          "address": "أمساعد/الطريق الرئيسي",
          "coordinates": {
            "x": 25.04994,
            "y": 32.60298
          },
          "rooms": 41,
          "beds": 120,
          "phone": "913560881",
          "notes": ""
        },
        {
          "id": 9,
          "name": "فندق أمساعد",
          "rating": "مقفل",
          "address": "أمساعد",
          "coordinates": {
            "x": null,
            "y": null
          },
          "rooms": 24,
          "beds": 55,
          "phone": "913108052",
          "notes": "لا يوجد"
        },
        {
          "id": 10,
          "name": "فندق العرب",
          "rating": "مقفل",
          "address": "أمساعد",
          "coordinates": {
            "x": null,
            "y": null
          },
          "rooms": 10,
          "beds": 24,
          "phone": "",
          "notes": "لا يوجد"
        },
        {
          "id": 11,
          "name": "فندق الجغبوب",
          "rating": "3 نجوم",
          "address": "طبرق",
          "coordinates": {
            "x": 23.97661,
            "y": 32.08043
          },
          "rooms": 29,
          "beds": 53,
          "phone": "876628260",
          "notes": "لايوجد"
        },
        {
          "id": 12,
          "name": "القافلة للشقق الفندقية",
          "rating": "",
          "address": "طبرق",
          "coordinates": {
            "x": null,
            "y": null
          },
          "rooms": 6,
          "beds": 30,
          "phone": "",
          "notes": "لايوجد"
        },
        {
          "id": 13,
          "name": "فندق زين (2) للشقق الفندقية",
          "rating": "",
          "address": "طبرق /حى الحرية",
          "coordinates": {
            "x": null,
            "y": null
          },
          "rooms": 6,
          "beds": 36,
          "phone": "925483316",
          "notes": "لايوجد"
        },
        {
          "id": 14,
          "name": "فندق البردي",
          "rating": "نجمتان",
          "address": "طبرق",
          "coordinates": {
            "x": 25.08716,
            "y": 32.175336
          },
          "rooms": 21,
          "beds": 40,
          "phone": "913824418",
          "notes": "لايوجد"
        },
        {
          "id": 15,
          "name": "فندق دار السلام (المسيرة سابقا)",
          "rating": "",
          "address": "طبرق",
          "coordinates": {
            "x": 23.97519,
            "y": 32.08508
          },
          "rooms": null,
          "beds": null,
          "phone": "092-7771610",
          "notes": ""
        }
      ]
    },
    {
      "city": "البيضاء",
      "hotels": [
        {
          "id": 1,
          "name": "فندق المنارة",
          "rating": "4 نجوم",
          "address": "سوسة",
          "coordinates": {
            "x": 21.96473,
            "y": 32.90084
          },
          "rooms": 94,
          "beds": 180,
          "phone": "912090313",
          "notes": "لايوجد"
        },
        {
          "id": 2,
          "name": "فندق الؤلؤة السياحي",
          "rating": "نجمة واحدة",
          "address": "مقابل البريد",
          "coordinates": {
            "x": 21.73796,
            "y": 32.75924
          },
          "rooms": 36,
          "beds": 66,
          "phone": "70-063968",
          "notes": "لايوجد"
        },
        {
          "id": 3,
          "name": "فندق قصر البيضاء",
          "rating": "",
          "address": "البيضاء",
          "coordinates": {
            "x": 21.73796,
            "y": 32.75924
          },
          "rooms": 61,
          "beds": 122,
          "phone": "633455",
          "notes": "لايوجد"
        },
        {
          "id": 4,
          "name": "فندق القاهرة",
          "rating": "",
          "address": "البيضاء",
          "coordinates": {
            "x": 21.74344,
            "y": 32.76199
          },
          "rooms": 16,
          "beds": 33,
          "phone": "4756",
          "notes": "لايوجد"
        },
        {
          "id": 5,
          "name": "نزل أية",
          "rating": "3 نجوم",
          "address": "البيضاء",
          "coordinates": {
            "x": null,
            "y": null
          },
          "rooms": 28,
          "beds": 46,
          "phone": "84637258",
          "notes": "لايوجد"
        },
        {
          "id": 6,
          "name": "فندق لؤلؤة الخليج",
          "rating": "2 نجمتان",
          "address": "البيضاء",
          "coordinates": {
            "x": 21.77737,
            "y": 32.76525
          },
          "rooms": 31,
          "beds": 61,
          "phone": "630971",
          "notes": "لايوجد"
        },
        {
          "id": 7,
          "name": "فندق المدينة البيضاء للشقق الفندقية",
          "rating": "",
          "address": "البيضاء",
          "coordinates": {
            "x": null,
            "y": null
          },
          "rooms": 8,
          "beds": 16,
          "phone": "637040",
          "notes": "لايوجد"
        },
        {
          "id": 8,
          "name": "منتجع ابولوا السياحي( القرية السياحية شحات )",
          "rating": "3 نجوم",
          "address": "البيضاء",
          "coordinates": {
            "x": null,
            "y": null
          },
          "rooms": 29,
          "beds": 58,
          "phone": "912093230",
          "notes": "لايوجد"
        },
        {
          "id": 9,
          "name": "فندق التلال",
          "rating": "2 نجمتان",
          "address": "البيضاء",
          "coordinates": {
            "x": 21.73344,
            "y": 32.79336
          },
          "rooms": 22,
          "beds": 44,
          "phone": "925777040",
          "notes": ""
        },
        {
          "id": 10,
          "name": "فندق مرحبا",
          "rating": "4 نجوم",
          "address": "البيضاء",
          "coordinates": {
            "x": 21.78861,
            "y": 32.76818
          },
          "rooms": 121,
          "beds": 186,
          "phone": "844631998",
          "notes": ""
        }
      ]
    },
    {
      "city": "الخمس",
      "hotels": [
        {
          "id": 1,
          "name": "فندق النقازة",
          "rating": "صيانة",
          "address": "النقازة",
          "coordinates": {
            "x": 14.098873,
            "y": 32.694083
          },
          "rooms": 14,
          "beds": 28,
          "phone": "912134456",
          "notes": "لايوجد"
        },
        {
          "id": 2,
          "name": "فندق لبدة السياحي",
          "rating": "صيانة",
          "address": "شارع لبدة",
          "coordinates": {
            "x": 14.27896,
            "y": 32.64034
          },
          "rooms": 22,
          "beds": 38,
          "phone": "927696751",
          "notes": ""
        },
        {
          "id": 3,
          "name": "فندق الحسنين الكبير",
          "rating": "نجمتان",
          "address": "طريق الساحل /الخمس",
          "coordinates": {
            "x": 14.25127,
            "y": 32.6435
          },
          "rooms": 34,
          "beds": 68,
          "phone": "312624078",
          "notes": ""
        },
        {
          "id": 4,
          "name": "فندق سيفيروس",
          "rating": "نجمتان",
          "address": "شارع الفاتح",
          "coordinates": {
            "x": 14.25056,
            "y": 32.64458
          },
          "rooms": 16,
          "beds": 32,
          "phone": "312625086",
          "notes": ""
        },
        {
          "id": 5,
          "name": "فندق الأندلس السياحي",
          "rating": "صيانة",
          "address": "الطريق الساحلي",
          "coordinates": {
            "x": 14.27773,
            "y": 32.63305
          },
          "rooms": 15,
          "beds": 28,
          "phone": "315328845",
          "notes": ""
        },
        {
          "id": 6,
          "name": "فندق المرقب",
          "rating": "",
          "address": "الخمس",
          "coordinates": {
            "x": 14.28843,
            "y": 32.62979
          },
          "rooms": null,
          "beds": null,
          "phone": "",
          "notes": "لايوجد"
        },
        {
          "id": 7,
          "name": "فندق الخمس السياحي",
          "rating": "تحت الإنشاء",
          "address": "",
          "coordinates": {
            "x": null,
            "y": null
          },
          "rooms": null,
          "beds": null,
          "phone": "",
          "notes": "لايوجد"
        },
        {
          "id": 8,
          "name": "نزل عروس البحر",
          "rating": "مقفل",
          "address": "شارع البلدية",
          "coordinates": {
            "x": null,
            "y": null
          },
          "rooms": 3,
          "beds": 9,
          "phone": "",
          "notes": "لايوجد"
        },
        {
          "id": 9,
          "name": "فندق المدينة",
          "rating": "نجمتان",
          "address": "ش بن جحا",
          "coordinates": {
            "x": null,
            "y": null
          },
          "rooms": 32,
          "beds": 67,
          "phone": "312620798",
          "notes": "لا يوجد"
        },
        {
          "id": 10,
          "name": "القرية السياحية الخمس",
          "rating": "3 نجوم",
          "address": "الخمس",
          "coordinates": {
            "x": 14.277971,
            "y": 32.645422
          },
          "rooms": 48,
          "beds": 96,
          "phone": "6169071",
          "notes": ""
        },
        {
          "id": 11,
          "name": "فندق توليب",
          "rating": "",
          "address": "الخمس",
          "coordinates": {
            "x": 14.249292,
            "y": 32.650813
          },
          "rooms": 27,
          "beds": 76,
          "phone": "094-2108580",
          "notes": ""
        },
        {
          "id": 12,
          "name": "بيت شباب الخمس",
          "rating": "",
          "address": "شارع الرياضية",
          "coordinates": {
            "x": 14.24756,
            "y": 32.648142
          },
          "rooms": 119,
          "beds": 427,
          "phone": "091-0991010",
          "notes": ""
        }
      ]
    },
    {
      "city": "بنغازي",
      "hotels": [
        {
          "id": 1,
          "name": "فندق القاهرة السياحي",
          "rating": "",
          "address": "",
          "coordinates": {
            "x": null,
            "y": null
          },
          "rooms": 80,
          "beds": 160,
          "phone": "",
          "notes": ""
        },
        {
          "id": 2,
          "name": "فندق تيبستي",
          "rating": "5 نجوم",
          "address": "سيدي حسين",
          "coordinates": {
            "x": 20.06837,
            "y": 32.11079
          },
          "rooms": 250,
          "beds": 452,
          "phone": "17-9090016",
          "notes": "لا يوجد"
        },
        {
          "id": 3,
          "name": "فندق أوزو",
          "rating": "4 نجوم",
          "address": "ميدان شهداء الجزيرة",
          "coordinates": {
            "x": 20.05905,
            "y": 32.10142
          },
          "rooms": 262,
          "beds": 416,
          "phone": "66/9095160",
          "notes": "لا يوجد"
        },
        {
          "id": 4,
          "name": "فندق الشرق السياحي",
          "rating": "",
          "address": "بنغازي",
          "coordinates": {
            "x": null,
            "y": null
          },
          "rooms": 82,
          "beds": 174,
          "phone": "9093575",
          "notes": ""
        },
        {
          "id": 5,
          "name": "فندق شاطيء إشبيليا",
          "rating": "تحت الصيانة",
          "address": "بنغازي المدينة",
          "coordinates": {
            "x": 20.04162,
            "y": 32.08405
          },
          "rooms": 68,
          "beds": null,
          "phone": "",
          "notes": "لا يوجد"
        },
        {
          "id": 6,
          "name": "بيت بنغازي",
          "rating": "",
          "address": "بنغازي المدينة",
          "coordinates": {
            "x": null,
            "y": null
          },
          "rooms": 16,
          "beds": 32,
          "phone": "9096997",
          "notes": "لا يوجد"
        },
        {
          "id": 7,
          "name": "فندق اهلابكم",
          "rating": "",
          "address": "الصابري",
          "coordinates": {
            "x": null,
            "y": null
          },
          "rooms": 20,
          "beds": 50,
          "phone": "89961",
          "notes": ""
        },
        {
          "id": 8,
          "name": "فندق مرحبا السياحي",
          "rating": "",
          "address": "بنغازي المدينة",
          "coordinates": {
            "x": null,
            "y": null
          },
          "rooms": 20,
          "beds": 40,
          "phone": "9099378",
          "notes": "لا يوجد"
        },
        {
          "id": 9,
          "name": "فندق أفريقيا",
          "rating": "2 نجمتان",
          "address": "الصابري ش الجزائر",
          "coordinates": {
            "x": 20.0735,
            "y": 32.12585
          },
          "rooms": 94,
          "beds": 163,
          "phone": "3380445",
          "notes": ""
        },
        {
          "id": 10,
          "name": "فندق برج العرب",
          "rating": "",
          "address": "سيدي حسين",
          "coordinates": {
            "x": 20.07337,
            "y": 32.02679
          },
          "rooms": 91,
          "beds": 228,
          "phone": "9096001",
          "notes": ""
        },
        {
          "id": 11,
          "name": "فندق الجزيرة",
          "rating": "",
          "address": "بنغازي المدينة",
          "coordinates": {
            "x": null,
            "y": null
          },
          "rooms": 120,
          "beds": 177,
          "phone": "9096009",
          "notes": "لا يوجد"
        },
        {
          "id": 12,
          "name": "فندق الأنيس",
          "rating": "2 نجمتان",
          "address": "ش- عمر بن الخطاب",
          "coordinates": {
            "x": null,
            "y": null
          },
          "rooms": 46,
          "beds": 86,
          "phone": "9098974",
          "notes": "لا يوجد"
        },
        {
          "id": 13,
          "name": "فندق الممتاز",
          "rating": "",
          "address": "بنغازي المدينة",
          "coordinates": {
            "x": null,
            "y": null
          },
          "rooms": 115,
          "beds": 215,
          "phone": "9097581",
          "notes": "لا يوجد"
        },
        {
          "id": 14,
          "name": "فندق الامة العربية",
          "rating": "",
          "address": "سيدي حسين",
          "coordinates": {
            "x": null,
            "y": null
          },
          "rooms": 63,
          "beds": 119,
          "phone": "9098655",
          "notes": "لا يوجد"
        },
        {
          "id": 15,
          "name": "فندق السلام",
          "rating": "",
          "address": "بنغازي المدينة",
          "coordinates": {
            "x": null,
            "y": null
          },
          "rooms": 28,
          "beds": 102,
          "phone": "9099936",
          "notes": "لا يوجد"
        },
        {
          "id": 16,
          "name": "فندق المدينة",
          "rating": "",
          "address": "بنغازي المدينة",
          "coordinates": {
            "x": null,
            "y": null
          },
          "rooms": 44,
          "beds": 106,
          "phone": "3350650",
          "notes": "لا يوجد"
        },
        {
          "id": 17,
          "name": "فندق الشرق",
          "rating": "",
          "address": "بنغازي المدينة",
          "coordinates": {
            "x": null,
            "y": null
          },
          "rooms": 65,
          "beds": 121,
          "phone": "9093575",
          "notes": "لا يوجد"
        },
        {
          "id": 18,
          "name": "فندق البحر المتوسط",
          "rating": "",
          "address": "بنغازي المدينة",
          "coordinates": {
            "x": null,
            "y": null
          },
          "rooms": 43,
          "beds": 136,
          "phone": "9090395",
          "notes": "لا يوجد"
        },
        {
          "id": 19,
          "name": "الفندق الكبير",
          "rating": "",
          "address": "بنغازي المدينة",
          "coordinates": {
            "x": null,
            "y": null
          },
          "rooms": 75,
          "beds": 189,
          "phone": "9092882",
          "notes": "لا يوجد"
        },
        {
          "id": 20,
          "name": "فندق الزحف الأخضر",
          "rating": "",
          "address": "ش/احمد رفيق المهدوى",
          "coordinates": {
            "x": null,
            "y": null
          },
          "rooms": 120,
          "beds": 220,
          "phone": "",
          "notes": "لا يوجد"
        },
        {
          "id": 21,
          "name": "فندق تاقرفت",
          "rating": "",
          "address": "الصابرى ش/بالروين",
          "coordinates": {
            "x": null,
            "y": null
          },
          "rooms": 72,
          "beds": 144,
          "phone": "925319841",
          "notes": "لا يوجد"
        },
        {
          "id": 22,
          "name": "فندق سرت",
          "rating": "",
          "address": "سيدي حسين/ ش البشائر",
          "coordinates": {
            "x": null,
            "y": null
          },
          "rooms": 10,
          "beds": 17,
          "phone": "9097343",
          "notes": "لا يوجد"
        },
        {
          "id": 23,
          "name": "فندق القرضابية",
          "rating": "",
          "address": "جمال عبد الناصر",
          "coordinates": {
            "x": 20.07153,
            "y": 32.10972
          },
          "rooms": 50,
          "beds": 100,
          "phone": "923692890",
          "notes": ""
        },
        {
          "id": 24,
          "name": "فندق قصر الجزيرة",
          "rating": "",
          "address": "بنغازي",
          "coordinates": {
            "x": null,
            "y": null
          },
          "rooms": 134,
          "beds": 251,
          "phone": "تحت الصيانة",
          "notes": "لا يوجد"
        },
        {
          "id": 25,
          "name": "فندق عمر الخيام",
          "rating": "2 نجمتان",
          "address": "بنغازي/المدينة",
          "coordinates": {
            "x": null,
            "y": null
          },
          "rooms": 142,
          "beds": 284,
          "phone": "تحت الصيانة",
          "notes": "لا يوجد"
        },
        {
          "id": 26,
          "name": "أجنحة الخليج للشقق الفندقية",
          "rating": "",
          "address": "شارع الخليج لليثي",
          "coordinates": {
            "x": 20.12049,
            "y": 32.08676
          },
          "rooms": 30,
          "beds": 92,
          "phone": "094-5683538",
          "notes": ""
        },
        {
          "id": 27,
          "name": "فندق أطلس",
          "rating": "",
          "address": "سيدي حسين/ش البشائر",
          "coordinates": {
            "x": null,
            "y": null
          },
          "rooms": 27,
          "beds": 91,
          "phone": "925574526",
          "notes": "لا يوجد"
        },
        {
          "id": 28,
          "name": "فندق الحدائق للشقق الفندقية",
          "rating": "",
          "address": "بنغازي",
          "coordinates": {
            "x": 20.10218,
            "y": 32.08253
          },
          "rooms": 41,
          "beds": 96,
          "phone": "9092314",
          "notes": ""
        },
        {
          "id": 29,
          "name": "فندق النماء",
          "rating": "",
          "address": "الصابري",
          "coordinates": {
            "x": null,
            "y": null
          },
          "rooms": 11,
          "beds": 30,
          "phone": "3389961",
          "notes": "لا يوجد"
        },
        {
          "id": 30,
          "name": "فندق النيروز",
          "rating": "",
          "address": "بنغازي المدينة",
          "coordinates": {
            "x": null,
            "y": null
          },
          "rooms": 14,
          "beds": 34,
          "phone": "916100411",
          "notes": "لا يوجد"
        },
        {
          "id": 31,
          "name": "فندق النجمة",
          "rating": "2 نجمتان",
          "address": "الصابري/ش وادى المجانين",
          "coordinates": {
            "x": 20.076,
            "y": 32.12978
          },
          "rooms": 44,
          "beds": 96,
          "phone": "3372448",
          "notes": ""
        },
        {
          "id": 32,
          "name": "فندق الفضيل",
          "rating": "3 نجوم",
          "address": "جليانة /ش الشط",
          "coordinates": {
            "x": 20.04569,
            "y": 32.08388
          },
          "rooms": 76,
          "beds": 104,
          "phone": "9095300",
          "notes": ""
        },
        {
          "id": 33,
          "name": "فندق الجبل الأخضر",
          "rating": "مغلق نهائيا",
          "address": "بنغازي المدينة",
          "coordinates": {
            "x": null,
            "y": null
          },
          "rooms": 9,
          "beds": 30,
          "phone": "9081980",
          "notes": "لا يوجد"
        },
        {
          "id": 34,
          "name": "فندق بوهادي",
          "rating": "",
          "address": "بنغازي المدينة",
          "coordinates": {
            "x": null,
            "y": null
          },
          "rooms": 27,
          "beds": 57,
          "phone": "9093183",
          "notes": "لا يوجد"
        },
        {
          "id": 35,
          "name": "فندق الصداقة السياحي",
          "rating": "",
          "address": "سيدي حسين",
          "coordinates": {
            "x": null,
            "y": null
          },
          "rooms": 47,
          "beds": 156,
          "phone": "9099795",
          "notes": "لا يوجد"
        },
        {
          "id": 36,
          "name": "فندق فلسطين السياحي",
          "rating": "",
          "address": "ألصابري",
          "coordinates": {
            "x": 20.06934,
            "y": 32.12774
          },
          "rooms": 78,
          "beds": 211,
          "phone": "3387635",
          "notes": "لا يوجد"
        },
        {
          "id": 37,
          "name": "فندق قورينا بلازا",
          "rating": "",
          "address": "الصابري",
          "coordinates": {
            "x": null,
            "y": null
          },
          "rooms": 75,
          "beds": 120,
          "phone": "87767",
          "notes": ""
        },
        {
          "id": 38,
          "name": "القرية العائلية قاريونس",
          "rating": "3 نجوم",
          "address": "شارع الجزائر",
          "coordinates": {
            "x": null,
            "y": null
          },
          "rooms": 460,
          "beds": 330,
          "phone": "9096350",
          "notes": "لا يوجد"
        },
        {
          "id": 40,
          "name": "نزل باب الخير",
          "rating": "",
          "address": "بنغازي المدينة",
          "coordinates": {
            "x": null,
            "y": null
          },
          "rooms": 21,
          "beds": 42,
          "phone": "",
          "notes": "لا يوجد"
        },
        {
          "id": 41,
          "name": "فندق نزل الراحة",
          "rating": "3 نجوم",
          "address": "سيدي حسين",
          "coordinates": {
            "x": 20.0714,
            "y": 32.11324
          },
          "rooms": 16,
          "beds": 23,
          "phone": "9081700",
          "notes": ""
        },
        {
          "id": 42,
          "name": "فندق يوسف",
          "rating": "",
          "address": "بنغازي",
          "coordinates": {
            "x": 20.08621,
            "y": 32.07319
          },
          "rooms": 39,
          "beds": 70,
          "phone": "092-0001444",
          "notes": ""
        },
        {
          "id": 43,
          "name": "فندق النوران",
          "rating": "",
          "address": "الصابرى /ش الجزائر",
          "coordinates": {
            "x": 20.07494,
            "y": 32.12786
          },
          "rooms": 54,
          "beds": 99,
          "phone": "092-",
          "notes": ""
        },
