{
  "resorts": [
    {
      "id": 1,
      "name": "قرية إدوس السياحية",
      "type": "قرية سياحية",
      "city": "زوارة",
      "coordinates": {
        "x": 11.99958,
        "y": 32.99007
      },
      "chalets": 19,
      "beds": 76
    },
    {
      "id": 2,
      "name": "قرية مرمرة السياحية",
      "type": "قرية سياحية",
      "city": "زوارة",
      "coordinates": {
        "x": 12.00675,
        "y": 32.98528
      },
      "chalets": 36,
      "beds": 144
    },
    {
      "id": 3,
      "name": "قرية ڤيرونا السياحية",
      "type": "قرية سياحية",
      "city": "زوارة",
      "coordinates": {
        "x": 12.17629,
        "y": 32.87979
      },
      "chalets": 20,
      "beds": 80
    },
    {
      "id": 4,
      "name": "قرية البرتقالة",
      "type": "قرية سياحية",
      "city": "زوارة",
      "coordinates": {
        "x": 12.02545,
        "y": 32.97487
      },
      "chalets": 22,
      "beds": 88
    },
    {
      "id": 5,
      "name": "قرية شط النخيل زوارة",
      "type": "قرية سياحية",
      "city": "زوارة",
      "coordinates": {
        "x": 12.04913,
        "y": 32.95518
      },
      "chalets": 13,
      "beds": 52
    },
    {
      "id": 6,
      "name": "قرية اوليڤيا السياحية",
      "type": "قرية سياحية",
      "city": "زوارة",
      "coordinates": {
        "x": 12.02515,
        "y": 32.97514
      },
      "chalets": 24,
      "beds": 96
    },
    {
      "id": 7,
      "name": "منتجع تيتانيك زوارة",
      "type": "منتجع سياحي",
      "city": "زوارة",
      "coordinates": {
        "x": 12.056433,
        "y": 32.952194
      },
      "chalets": 18,
      "beds": 72
    },
    {
      "id": 8,
      "name": "إقامة تولين السياحية",
      "type": "قرية سياحية",
      "city": "زوارة",
      "coordinates": {
        "x": 12.02127,
        "y": 32.97909
      },
      "chalets": 8,
      "beds": 32
    },
    {
      "id": 9,
      "name": "منتجع ڤيلا هيا",
      "type": "منتجع سياحي",
      "city": "زوارة",
      "coordinates": {
        "x": 12.06511,
        "y": 32.94621
      },
      "chalets": 4,
      "beds": 35
    },
    {
      "id": 10,
      "name": "منتجع زين السياحي",
      "type": "شاليهات",
      "city": "زوارة",
      "coordinates": {
        "x": 12.042001,
        "y": 32.961306
      },
      "chalets": 3,
      "beds": 13
    },
    {
      "id": 11,
      "name": "قرية تيبودا السياحيه",
      "type": "قرية سياحية",
      "city": "زوارة",
      "coordinates": {
        "x": 12.05305,
        "y": 32.954479
      },
      "chalets": 35,
      "beds": 140
    },
    {
      "id": 12,
      "name": "قرية سبتيموس السياحية",
      "type": "قرية سياحية",
      "city": "زوارة",
      "coordinates": {
        "x": 12.009222,
        "y": 32.985516
      },
      "chalets": 15,
      "beds": 45
    },
    {
      "id": 13,
      "name": "قرية سيمو السياحية",
      "type": "قرية سياحية",
      "city": "زوارة",
      "coordinates": {
        "x": 12.003927,
        "y": 32.986739
      },
      "chalets": 20,
      "beds": 60
    },
    {
      "id": 14,
      "name": "استراحة ازول",
      "type": "قرية سياحية",
      "city": "زوارة",
      "coordinates": {
        "x": 12.018794,
        "y": 32981177
      },
      "chalets": 3,
      "beds": 15
    },
    {
      "id": 15,
      "name": "منتجع ستي بارك",
      "type": "منتجع سياحي",
      "city": "زوارة",
      "coordinates": {
        "x": 12.102154,
        "y": 32.940238
      },
      "chalets": 0,
      "beds": 0
    },
    {
      "id": 16,
      "name": "DiVano Resort منتجع ديفانو",
      "type": "منتجع سياحي",
      "city": "زوارة",
      "coordinates": {
        "x": 12.06839,
        "y": 32.94575
      },
      "chalets": null,
      "beds": null
    },
    {
      "id": 17,
      "name": "قرية جوهرة صبراتة السياحية",
      "type": "قرية سياحية",
      "city": "صبراتة",
      "coordinates": {
        "x": 12.458591,
        "y": 32.811052
      },
      "chalets": 21,
      "beds": 84
    },
    {
      "id": 18,
      "name": "قرية المغرب العربي",
      "type": "قرية سياحية",
      "city": "صبراتة",
      "coordinates": {
        "x": 12.32836,
        "y": 32.826576
      },
      "chalets": 98,
      "beds": 392
    },
    {
      "id": 19,
      "name": "مركب تليل السياحي",
      "type": "قرية سياحية",
      "city": "صبراتة",
      "coordinates": {
        "x": 12.418058,
        "y": 32.81619
      },
      "chalets": 203,
      "beds": 482
    },
    {
      "id": 20,
      "name": "القرية السياحية جنزور",
      "type": "قرية سياحية",
      "city": "جنزور",
      "coordinates": {
        "x": 13.008757,
        "y": 32.837409
      },
      "chalets": 185,
      "beds": 458
    },
    {
      "id": 21,
      "name": "قرية ديار البحر",
      "type": "قرية سياحية",
      "city": "جنزور",
      "coordinates": {
        "x": 13.016229,
        "y": 32.839707
      },
      "chalets": 150,
      "beds": 600
    },
    {
      "id": 22,
      "name": "قرية بالم سيتي",
      "type": "قرية سياحية",
      "city": "جنزور",
      "coordinates": {
        "x": 13.045035,
        "y": 32.847973
      },
      "chalets": 413,
      "beds": 826
    },
    {
      "id": 23,
      "name": "القرية السياحية الريقاتة",
      "type": "قرية سياحية",
      "city": "طرابلس",
      "coordinates": {
        "x": 13.057959,
        "y": 32.852678
      },
      "chalets": 721,
      "beds": 2884
    },
    {
      "id": 24,
      "name": "شيراتون - النقاط الأربعة",
      "type": "مركب سياحية",
      "city": "طرابلس",
      "coordinates": {
        "x": 13.146558,
        "y": 32.881603
      },
      "chalets": 204,
      "beds": 400
    },
    {
      "id": 25,
      "name": "القرية السياحية تاجوراء",
      "type": "قرية سياحية",
      "city": "تاجوراء",
      "coordinates": {
        "x": 13.429375,
        "y": 32.863304
      },
      "chalets": 152,
      "beds": 300
    },
    {
      "id": 26,
      "name": "منتجع سمرلاند المائي",
      "type": "منتجع سياحي",
      "city": "تاجوراء",
      "coordinates": {
        "x": 13.582356,
        "y": 32.79684
      },
      "chalets": 25,
      "beds": 100
    },
    {
      "id": 27,
      "name": "Paradise - استراحة بارادايس",
      "type": "منتجع سياحي",
      "city": "تاجوراء",
      "coordinates": {
        "x": null,
        "y": null
      },
      "chalets": null,
      "beds": null
    },
    {
      "id": 28,
      "name": "Merryland Park منتزه الميريلاند",
      "type": "منتجع سياحي",
      "city": "تاجوراء",
      "coordinates": {
        "x": null,
        "y": null
      },
      "chalets": null,
      "beds": null
    },
    {
      "id": 29,
      "name": "منتجع التلة للألعاب المائية - AlTalla Water Games Resort",
      "type": "منتجع سياحي",
      "city": "تاجوراء",
      "coordinates": {
        "x": null,
        "y": null
      },
      "chalets": null,
      "beds": null
    },
    {
      "id": 30,
      "name": "قرية مارينا السياحية",
      "type": "قرية سياحية",
      "city": "الخمس",
      "coordinates": {
        "x": 14.353304,
        "y": 32.596288
      },
      "chalets": 5,
      "beds": 60
    },
    {
      "id": 31,
      "name": "قرية قصر سيلين العائلية",
      "type": "قرية سياحية",
      "city": "الخمس",
      "coordinates": {
        "x": 14.186629,
        "y": 32.707032
      },
      "chalets": 11,
      "beds": 44
    },
    {
      "id": 32,
      "name": "قرية حدائق غنيمة",
      "type": "قرية سياحية",
      "city": "الخمس",
      "coordinates": {
        "x": 14.057437,
        "y": 32.715893
      },
      "chalets": 23,
      "beds": 250
    },
    {
      "id": 33,
      "name": "إستراحة شط غنيمة",
      "type": "إستراحة",
      "city": "الخمس",
      "coordinates": {
        "x": 14.028664,
        "y": 32.722468
      },
      "chalets": 1,
      "beds": 4
    },
    {
      "id": 34,
      "name": "قرية المتوسط العائلية",
      "type": "قرية سياحية",
      "city": "الخمس",
      "coordinates": {
        "x": 14.029558,
        "y": 32.72726
      },
      "chalets": 23,
      "beds": 92
    },
    {
      "id": 35,
      "name": "قرية قوس غنيمة السياحية",
      "type": "قرية سياحية",
      "city": "الخمس",
      "coordinates": {
        "x": 14.056035,
        "y": 32.723718
      },
      "chalets": 10,
      "beds": 20
    },
    {
      "id": 36,
      "name": "قرية لؤلؤة غنيمة العائلية",
      "type": "قرية سياحية",
      "city": "الخمس",
      "coordinates": {
        "x": 14.058561,
        "y": 32.72085
      },
      "chalets": 10,
      "beds": 20
    },
    {
      "id": 37,
      "name": "قرية شمس البحر",
      "type": "قرية سياحية",
      "city": "الخمس",
      "coordinates": {
        "x": 14.058697,
        "y": 32.722389
      },
      "chalets": 10,
      "beds": 20
    },
    {
      "id": 38,
      "name": "الشاطيء الذهبي",
      "type": "منتجع سياحي",
      "city": "الخمس",
      "coordinates": {
        "x": 14.059676,
        "y": 32.719284
      },
      "chalets": 15,
      "beds": 30
    },
    {
      "id": 39,
      "name": "منتجع سي شيلز",
      "type": "منتجع سياحي",
      "city": "الخمس",
      "coordinates": {
        "x": 14.190416,
        "y": 32.70577
      },
      "chalets": 8,
      "beds": 48
    },
    {
      "id": 40,
      "name": "منتجع حوض البحر",
      "type": "قرية سياحية",
      "city": "الخمس",
      "coordinates": {
        "x": 14.06078,
        "y": 32.723115
      },
      "chalets": 58,
      "beds": 250
    },
    {
      "id": 41,
      "name": "قرية الخمس السياحية",
      "type": "قرية سياحية",
      "city": "الخمس",
      "coordinates": {
        "x": 14.277934,
        "y": 32.646417
      },
      "chalets": 24,
      "beds": 96
    },
    {
      "id": 42,
      "name": "قريه غنيمه العائليه",
      "type": "قرية سياحية",
      "city": "الخمس",
      "coordinates": {
        "x": 14.054779,
        "y": 32.720435
      },
      "chalets": 52,
      "beds": 100
    },
    {
      "id": 43,
      "name": "قرية اكوا مارين السياحية",
      "type": "قرية سياحية",
      "city": "الخمس",
      "coordinates": {
        "x": 14.034063,
        "y": 32.726078
      },
      "chalets": 10,
      "beds": 13
    },
    {
      "id": 44,
      "name": "قرية جنيف العائلية غنيمة",
      "type": "قرية سياحية",
      "city": "الخمس",
      "coordinates": {
        "x": 14.031051,
        "y": 32.726989
      },
      "chalets": 15,
      "beds": 37
    },
    {
      "id": 45,
      "name": "منتجع شاطئ غنيمة",
      "type": "قرية سياحية",
      "city": "الخمس",
      "coordinates": {
        "x": 14.053946,
        "y": 32.719393
      },
      "chalets": 26,
      "beds": 64
    },
    {
      "id": 46,
      "name": "قرية شاطئ النخيل الذهبي",
      "type": "قرية سياحية",
      "city": "الخمس",
      "coordinates": {
        "x": 13.935258,
        "y": 32.773882
      },
      "chalets": 30,
      "beds": 120
    },
    {
      "id": 47,
      "name": "شاليهات بن حمودة العائلي",
      "type": "شاليهات",
      "city": "الخمس",
      "coordinates": {
        "x": 14.037121,
        "y": 32.725636
      },
      "chalets": 10,
      "beds": 20
    },
    {
      "id": 48,
      "name": "قرية الإجازة السعيدة Happy Holiday",
      "type": "قرية سياحية",
      "city": "الخمس",
      "coordinates": {
        "x": 14.036372,
        "y": 32.724812
      },
      "chalets": null,
      "beds": null
    },
    {
      "id": 49,
      "name": "منتجع كريستال السياحي",
      "type": "منتجع سياحي",
      "city": "القره بولي",
      "coordinates": {
        "x": 13.635819,
        "y": 32.790112
      },
      "chalets": 6,
      "beds": 24
    },
    {
      "id": 50,
      "name": "منتجع رويال فيلا",
      "type": "منتجع سياحي",
      "city": "القره بولي",
      "coordinates": {
        "x": 13.666047,
        "y": 32.794615
      },
      "chalets": 40,
      "beds": 80
    },
    {
      "id": 51,
      "name": "قرية القويعة",
      "type": "قرية سياحية",
      "city": "القره بولي",
      "coordinates": {
        "x": 13.63181,
        "y": 32.793961
      },
      "chalets": 22,
      "beds": 132
    },
    {
      "id": 52,
      "name": "منتجع فيلا دريم هاوس",
      "type": "منتجع سياحي",
      "city": "القره بولي",
      "coordinates": {
        "x": 13.672415,
        "y": 32.787385
      },
      "chalets": 7,
      "beds": 28
    },
    {
      "id": 53,
      "name": "منتجع شط مريم",
      "type": "منتجع سياحي",
      "city": "القره بولي",
      "coordinates": {
        "x": 13.662256,
        "y": 32.788957
      },
      "chalets": 26,
      "beds": 130
    },
    {
      "id": 54,
      "name": "منتجع الجود القويعه",
      "type": "منتجع سياحي",
      "city": "القره بولي",
      "coordinates": {
        "x": 13.633117,
        "y": 32.789245
      },
      "chalets": 1,
      "beds": 4
    },
    {
      "id": 55,
      "name": "منتجع اتش تي السياحي 1",
      "type": "منتجع سياحي",
      "city": "القره بولي",
      "coordinates": {
        "x": 13.632658,
        "y": 32.787163
      },
      "chalets": 17,
      "beds": 136
    },
    {
      "id": 56,
      "name": "منتجع اتش تي 3",
      "type": "منتجع سياحي",
      "city": "القره بولي",
      "coordinates": {
        "x": 13.642398,
        "y": 32.788613
      },
      "chalets": 14,
      "beds": 56
    },
    {
      "id": 57,
      "name": "منتجع شاليهات للاجار",
      "type": "منتجع سياحي",
      "city": "القره بولي",
      "coordinates": {
        "x": 13.644297,
        "y": 32.78798
      },
      "chalets": 8,
      "beds": 32
    },
    {
      "id": 58,
      "name": "قرية العطايا العائلية",
      "type": "قرية سياحية",
      "city": "القره بولي",
      "coordinates": {
        "x": 13.67546,
        "y": 32.789901
      },
      "chalets": 15,
      "beds": 31
    },
    {
      "id": 59,
      "name": "منتجع برستيج",
      "type": "منتجع سياحي",
      "city": "القره بولي",
      "coordinates": {
        "x": 13.667051,
        "y": 32.787697
      },
      "chalets": 38,
      "beds": 152
    },
    {
      "id": 60,
      "name": "قرية القويعة السياحية",
      "type": "قرية سياحية",
      "city": "القره بولي",
      "coordinates": {
        "x": 13.63402,
        "y": 32.78708
      },
      "chalets": 22,
      "beds": 132
    },
    {
      "id": 61,
      "name": "قرية ميار البحر العائليه",
      "type": "قرية سياحية",
      "city": "القره بولي",
      "coordinates": {
        "x": 13.687498,
        "y": 32.790211
      },
      "chalets": 27,
      "beds": 108
    },
    {
      "id": 62,
      "name": "شاليهات بن بيه",
      "type": "شاليهت للايجار",
      "city": "القره بولي",
      "coordinates": {
        "x": 13.644317,
        "y": 32.787964
      },
      "chalets": 18,
      "beds": 54
    },
    {
      "id": 63,
      "name": "قرية أغيث السياحية",
      "type": "قرية سياحية",
      "city": "القره بولي",
      "coordinates": {
        "x": 13.645657,
        "y": 32.788617
      },
      "chalets": 20,
      "beds": 40
    },
    {
      "id": 64,
      "name": "قرية الخلة السياحية العائلية",
      "type": "قرية سياحية",
      "city": "القره بولي",
      "coordinates": {
        "x": 13.679392,
        "y": 32.789627
      },
      "chalets": 15,
      "beds": 30
    },
    {
      "id": 65,
      "name": "مجمع جواهر لاند",
      "type": "قرية سياحية",
      "city": "القره بولي",
      "coordinates": {
        "x": 13.64625,
        "y": 32.787983
      },
      "chalets": 14,
      "beds": 56
    },
    {
      "id": 66,
      "name": "منتجع دار البحر",
      "type": "قرية سياحية",
      "city": "القره بولي",
      "coordinates": {
        "x": 13.647229,
        "y": 32.788158
      },
      "chalets": 1,
      "beds": 8
    },
    {
      "id": 67,
      "name": "قرية لؤلؤة غنيمة العائلية",
      "type": "قرية سياحية",
      "city": "القره بولي",
      "coordinates": {
        "x": 14.058217,
        "y": 32.721284
      },
      "chalets": 8,
      "beds": 32
    },
    {
      "id": 68,
      "name": "شاليهات ركن النيروز",
      "type": "قرية سياحية",
      "city": "القره بولي",
      "coordinates": {
        "x": 13.647762,
        "y": 32.789253
      },
      "chalets": 12,
      "beds": 48
    },
    {
      "id": 69,
      "name": "منتجع وادي بالنور",
      "type": "قرية سياحية",
      "city": "القره بولي",
      "coordinates": {
        "x": 13.593864,
        "y": 32.793093
      },
      "chalets": 30,
      "beds": 60
    },
    {
      "id": 70,
      "name": "منتجع بيتش هاوس",
      "type": "قرية سياحية",
      "city": "القره بولي",
      "coordinates": {
        "x": 14.058132,
        "y": 32.717999
      },
      "chalets": 2,
      "beds": 8
    },
    {
      "id": 71,
      "name": "قرية شمس البحر",
      "type": "قرية سياحية",
      "city": "القره بولي",
      "coordinates": {
        "x": 14.058782,
        "y": 32.722244
      },
      "chalets": 14,
      "beds": 28
    },
    {
      "id": 72,
      "name": "منتجع ايليت السياحي",
      "type": "قرية سياحية",
      "city": "القره بولي",
      "coordinates": {
        "x": 13.659272,
        "y": 32.789766
      },
      "chalets": 32,
      "beds": 128
    },
    {
      "id": 73,
      "name": "منتجع الماسة Almasa Resort",
      "type": "قرية سياحية",
      "city": "القره بولي",
      "coordinates": {
        "x": 13.652679,
        "y": 32.786251
      },
      "chalets": 42,
      "beds": 168
    },
    {
      "id": 74,
      "name": "قرية رأس الحمراء",
      "type": "قرية سياحية",
      "city": "العلوص",
      "coordinates": {
        "x": 13.934777,
        "y": 32.774643
      },
      "chalets": 18,
      "beds": 54
    },
    {
      "id": 75,
      "name": "قرية الهُزم السياحية",
      "type": "قرية سياحية",
      "city": "زليتن",
      "coordinates": {
        "x": 14.619678,
        "y": 32.489995
      },
      "chalets": 15,
      "beds": 45
    },
    {
      "id": 76,
      "name": "منازل العز السياحية",
      "type": "قرية سياحية",
      "city": "زليتن",
      "coordinates": {
        "x": 14.609135,
        "y": 32.494496
      },
      "chalets": 10,
      "beds": 30
    },
    {
      "id": 77,
      "name": "قرية أصيل السياحية",
      "type": "قرية سياحية",
      "city": "زليتن",
      "coordinates": {
        "x": 14.614811,
        "y": 32.489873
      },
      "chalets": 4,
      "beds": 16
    },
    {
      "id": 78,
      "name": "Veranda Resortمنتجع الشرفة",
      "type": "قرية سياحية",
      "city": "زليتن",
      "coordinates": {
        "x": 14.48924,
        "y": 32.50693
      },
      "chalets": 67,
      "beds": 268
    },
    {
      "id": 79,
      "name": "منتجع الأمان السياحي",
      "type": "منتجع سياحي",
      "city": "مصراتة",
      "coordinates": {
        "x": 15.001748,
        "y": 32.413668
      },
      "chalets": 90,
      "beds": 737
    },
    {
      "id": 80,
      "name": "منتجع مصراتة",
      "type": "منتجع سياحي",
      "city": "مصراتة",
      "coordinates": {
        "x": 15.11451,
        "y": 32.422984
      },
      "chalets": 0,
      "beds": 0
    },
    {
      "id": 81,
      "name": "منتجع فينيسيا",
      "type": "منتجع سياحي",
      "city": "مصراتة",
      "coordinates": {
        "x": 15.031316,
        "y": 32.411731
      },
      "chalets": 0,
      "beds": 0
    },
    {
      "id": 82,
      "name": "قرية زريق السياحية",
      "type": "قرية سياحية",
      "city": "مصراتة",
      "coordinates": {
        "x": 14.92952,
        "y": 32.431481
      },
      "chalets": 24,
      "beds": 115
    },
    {
      "id": 83,
      "name": "حي قصور الضيافة",
      "type": "قرية سياحية",
      "city": "سرت",
      "coordinates": {
        "x": 16.613499,
        "y": 31.233944
      },
      "chalets": 171,
      "beds": 684
    },
    {
      "id": 84,
      "name": "قرية ريماس العائلية",
      "type": "قرية سياحية",
      "city": "بنغازي",
      "coordinates": {
        "x": 19.949704,
        "y": 31.903204
      },
      "chalets": 90,
      "beds": 360
    },
    {
      "id": 85,
      "name": "قرية شاطيء النخيل",
      "type": "قرية سياحية",
      "city": "بنغازي",
      "coordinates": {
        "x": 19.954158,
        "y": 31.942865
      },
      "chalets": 250,
      "beds": 1000
    },
    {
      "id": 86,
      "name": "منتجع مارينا بنغازي السياحي",
      "type": "قرية سياحية",
      "city": "بنغازي",
      "coordinates": {
        "x": 19.959053,
        "y": 31.983284
      },
      "chalets": 160,
      "beds": 640
    },
    {
      "id": 87,
      "name": "منتجع الصفوة السياحي",
      "type": "قرية سياحية",
      "city": "بنغازي",
      "coordinates": {
        "x": 19.964638,
        "y": 31.993078
      },
      "chalets": 18,
      "beds": 72
    },
    {
      "id": 88,
      "name": "منتجع ماربيلا السياحي",
      "type": "قرية سياحية",
      "city": "بنغازي",
      "coordinates": {
        "x": 19.970981,
        "y": 31.993745
      },
      "chalets": 64,
      "beds": 256
    },
    {
      "id": 89,
      "name": "مجمع الاصالة السياحي",
      "type": "قرية سياحية",
      "city": "بنغازي",
      "coordinates": {
        "x": 19.973674,
        "y": 32.000429
      },
      "chalets": 220,
      "beds": 880
    },
    {
      "id": 90,
      "name": "قرية الفاضل",
      "type": "قرية سياحية",
      "city": "بنغازي",
      "coordinates": {
        "x": 20.009454,
        "y": 32.033592
      },
      "chalets": 160,
      "beds": 640
    },
    {
      "id": 91,
      "name": "منتجع الأسيل",
      "type": "قرية سياحية",
      "city": "بنغازي",
      "coordinates": {
        "x": 19.996742,
        "y": 32.01978
      },
      "chalets": 216,
      "beds": 864
    },
    {
      "id": 92,
      "name": "منتجع الماسة السياحي",
      "type": "شالية سياحي",
      "city": "بنغازي",
      "coordinates": {
        "x": 20.13767,
        "y": 32.070403
      },
      "chalets": 20,
      "beds": 80
    },
    {
      "id": 93,
      "name": "منتجع قاريونس العائلي",
      "type": "قرية سياحية",
      "city": "بنغازي",
      "coordinates": {
        "x": 20.037451,
        "y": 32.061877
      },
      "chalets": 580,
      "beds": 785
    },
    {